% program   : RTKLIB ver.2.4.3
% inp file  : TOW200AUS_S_20223590000_01D_30S_MO.rnx
% inp file  : TOW200AUS_S_20223590000_01D_MN.rnx
% inp file  : 2022359all.l6
% obs start : 2022/12/25 00:00:00.0 GPST (week2242      0.0s)
% obs end   : 2022/12/25 23:59:30.0 GPST (week2242  86370.0s)
% pos mode  : PPP Kinematic
% freqs     : L1+2
% solution  : Forward
% elev mask : 10.0 deg
% dynamics  : off
% tidecorr  : on
% ionos opt : Iono-Free LC
% tropo opt : Estimate ZTD
% ephemeris : Broadcast+SSR APC
% navi sys  : GPS GLONASS Galileo QZSS
% amb res   : OFF
% amb glo   : ON
% val thres : 3.0
% antenna1  : LEIAR25.R3      NONE  ( 0.0000  0.0000  0.0000)
%
% (lat/lon/height=WGS84/ellipsoidal,Q=1:fix,2:float,3:sbas,4:dgps,5:single,6:ppp,ns=# of satellites)
%  GPST                  latitude(deg) longitude(deg)  height(m)   Q  ns   sdn(m)   sde(m)   sdu(m)  sdne(m)  sdeu(m)  sdun(m) age(s)  ratio
2022/12/25 00:02:00.000  -19.269269166  147.055694503    87.5052   6   9   4.2219   3.5685   8.6164   1.0579  -2.7460  -0.4397   0.00    0.0
2022/12/25 00:02:30.000  -19.269262207  147.055698481    89.0405   6  14   2.3184   2.3328   5.0104  -0.1106  -1.0820   0.8268   0.00    0.0
2022/12/25 00:03:00.000  -19.269265092  147.055695355    89.9247   6  14   1.5159   1.8391   3.4936  -0.3773  -0.4573   0.8253   0.00    0.0
2022/12/25 00:03:30.000  -19.269276028  147.055695208    90.0219   6  14   1.0804   1.5442   2.6077  -0.3747   0.2205   0.6957   0.00    0.0
2022/12/25 00:04:00.000  -19.269276546  147.055695977    89.7528   6  14   0.8156   1.3376   2.0394  -0.3433   0.3387   0.5655   0.00    0.0
2022/12/25 00:04:30.000  -19.269273870  147.055698186    89.3692   6  15   0.6419   1.1784   1.6545  -0.3084   0.3382   0.4580   0.00    0.0
2022/12/25 00:05:00.000  -19.269270954  147.055698869    89.4348   6  15   0.5213   1.0513   1.3850  -0.2762   0.3105   0.3727   0.00    0.0
2022/12/25 00:05:30.000  -19.269270578  147.055696693    89.3745   6  15   0.4495   0.9563   1.2229  -0.2120   0.1851   0.2447   0.00    0.0
2022/12/25 00:06:00.000  -19.269270697  147.055696654    89.4460   6  15   0.3889   0.8758   1.0860  -0.1654  -0.0444   0.1601   0.00    0.0
2022/12/25 00:06:30.000  -19.269271951  147.055694055    89.1624   6  15   0.3420   0.8069   0.9757  -0.1227  -0.1633   0.0791   0.00    0.0
2022/12/25 00:07:00.000  -19.269270540  147.055692458    88.7085   6  15   0.3030   0.7467   0.8830  -0.0866  -0.2028  -0.0517   0.00    0.0
2022/12/25 00:07:30.000  -19.269270836  147.055690709    88.4442   6  15   0.2707   0.6934   0.8047  -0.0523  -0.2218  -0.0821   0.00    0.0
2022/12/25 00:08:00.000  -19.269271034  147.055690376    88.2333   6  15   0.2436   0.6459   0.7379   0.0154  -0.2306  -0.0913   0.00    0.0
2022/12/25 00:08:30.000  -19.269271175  147.055690570    88.2196   6  15   0.2206   0.6033   0.6805   0.0453  -0.2334  -0.0931   0.00    0.0
2022/12/25 00:09:00.000  -19.269271250  147.055690508    88.2836   6  15   0.2010   0.5649   0.6306   0.0560  -0.2326  -0.0918   0.00    0.0
2022/12/25 00:09:30.000  -19.269271827  147.055689647    88.2120   6  15   0.1842   0.5302   0.5869   0.0612  -0.2295  -0.0890   0.00    0.0
2022/12/25 00:10:00.000  -19.269271600  147.055689919    88.2034   6  15   0.1694   0.4976   0.5482   0.0618  -0.2256  -0.0860   0.00    0.0
2022/12/25 00:10:30.000  -19.269271549  147.055690165    88.2451   6  15   0.1566   0.4683   0.5136   0.0625  -0.2204  -0.0826   0.00    0.0
2022/12/25 00:11:00.000  -19.269271463  147.055690684    88.2497   6  15   0.1454   0.4417   0.4827   0.0624  -0.2144  -0.0793   0.00    0.0
2022/12/25 00:11:30.000  -19.269270703  147.055690732    88.1819   6  15   0.1356   0.4175   0.4548   0.0619  -0.2080  -0.0761   0.00    0.0
2022/12/25 00:12:00.000  -19.269270804  147.055690953    88.1380   6  15   0.1268   0.3953   0.4294   0.0612  -0.2013  -0.0731   0.00    0.0
2022/12/25 00:12:30.000  -19.269270833  147.055690200    88.0664   6  15   0.1191   0.3750   0.4063   0.0602  -0.1945  -0.0705   0.00    0.0
2022/12/25 00:13:00.000  -19.269270480  147.055691203    88.1540   6  15   0.1121   0.3562   0.3851   0.0591  -0.1878  -0.0680   0.00    0.0
2022/12/25 00:13:30.000  -19.269270772  147.055691291    88.2653   6  16   0.1059   0.3390   0.3657   0.0579  -0.1812  -0.0658   0.00    0.0
2022/12/25 00:14:00.000  -19.269270762  147.055691698    88.3141   6  16   0.0995   0.3228   0.3469   0.0557  -0.1740  -0.0614   0.00    0.0
2022/12/25 00:14:30.000  -19.269270765  147.055692113    88.2926   6  16   0.0941   0.3078   0.3297   0.0536  -0.1671  -0.0582   0.00    0.0
2022/12/25 00:15:00.000  -19.269270824  147.055692468    88.2995   6  16   0.0893   0.2938   0.3141   0.0518  -0.1598  -0.0549   0.00    0.0
2022/12/25 00:15:30.000  -19.269270847  147.055692107    88.2186   6  16   0.0849   0.2807   0.2994   0.0499  -0.1527  -0.0522   0.00    0.0
2022/12/25 00:16:00.000  -19.269271030  147.055691731    88.1369   6  16   0.0809   0.2683   0.2856   0.0480  -0.1458  -0.0497   0.00    0.0
2022/12/25 00:16:30.000  -19.269270828  147.055691955    88.1613   6  16   0.0772   0.2566   0.2728   0.0461  -0.1391  -0.0473   0.00    0.0
2022/12/25 00:17:00.000  -19.269270708  147.055692135    88.0897   6  16   0.0738   0.2455   0.2607   0.0442  -0.1326  -0.0452   0.00    0.0
2022/12/25 00:17:30.000  -19.269270600  147.055692350    88.1166   6  16   0.0707   0.2350   0.2494   0.0422  -0.1264  -0.0432   0.00    0.0
2022/12/25 00:18:00.000  -19.269270713  147.055692388    88.1166   6  16   0.0679   0.2251   0.2388   0.0405  -0.1203  -0.0412   0.00    0.0
2022/12/25 00:18:30.000  -19.269270658  147.055692372    88.2116   6  16   0.0653   0.2158   0.2289   0.0387  -0.1145  -0.0395   0.00    0.0
2022/12/25 00:19:00.000  -19.269271099  147.055691365    88.1267   6  16   0.0629   0.2071   0.2196   0.0374  -0.1089  -0.0378   0.00    0.0
2022/12/25 00:20:00.000  -19.269270933  147.055692005    88.1826   6  16   0.0605   0.1983   0.2094   0.0365  -0.1018  -0.0354   0.00    0.0
2022/12/25 00:20:30.000  -19.269271107  147.055692452    88.1946   6  16   0.0582   0.1899   0.2007   0.0347  -0.0955  -0.0336   0.00    0.0
2022/12/25 00:21:00.000  -19.269270788  147.055692627    88.1465   6  16   0.0561   0.1822   0.1926   0.0331  -0.0898  -0.0321   0.00    0.0
2022/12/25 00:21:30.000  -19.269270644  147.055692631    88.1548   6  16   0.0541   0.1749   0.1852   0.0316  -0.0845  -0.0308   0.00    0.0
2022/12/25 00:22:00.000  -19.269270822  147.055692568    88.1413   6  16   0.0524   0.1682   0.1783   0.0302  -0.0797  -0.0296   0.00    0.0
2022/12/25 00:22:30.000  -19.269270832  147.055692356    88.1140   6  16   0.0507   0.1619   0.1719   0.0289  -0.0752  -0.0285   0.00    0.0
2022/12/25 00:23:00.000  -19.269270563  147.055692710    88.1230   6  16   0.0492   0.1559   0.1660   0.0276  -0.0711  -0.0275   0.00    0.0
2022/12/25 00:23:30.000  -19.269270711  147.055692621    88.0968   6  16   0.0479   0.1504   0.1605   0.0265  -0.0672  -0.0266   0.00    0.0
2022/12/25 00:24:00.000  -19.269270671  147.055692776    88.1209   6  16   0.0466   0.1452   0.1553   0.0255  -0.0636  -0.0258   0.00    0.0
2022/12/25 00:24:30.000  -19.269270546  147.055692823    88.1524   6  16   0.0453   0.1402   0.1505   0.0245  -0.0603  -0.0251   0.00    0.0
2022/12/25 00:25:00.000  -19.269270593  147.055692892    88.0927   6  16   0.0443   0.1356   0.1460   0.0236  -0.0572  -0.0245   0.00    0.0
2022/12/25 00:25:30.000  -19.269270531  147.055693061    88.1556   6  16   0.0432   0.1312   0.1418   0.0227  -0.0543  -0.0238   0.00    0.0
2022/12/25 00:26:00.000  -19.269270582  147.055693088    88.1968   6  16   0.0423   0.1271   0.1378   0.0219  -0.0516  -0.0233   0.00    0.0
2022/12/25 00:26:30.000  -19.269270732  147.055693019    88.1528   6  16   0.0413   0.1232   0.1341   0.0211  -0.0490  -0.0227   0.00    0.0
2022/12/25 00:27:00.000  -19.269270655  147.055693292    88.2082   6  16   0.0404   0.1194   0.1305   0.0203  -0.0466  -0.0222   0.00    0.0
2022/12/25 00:27:30.000  -19.269270910  147.055692697    88.1461   6  16   0.0397   0.1159   0.1272   0.0196  -0.0444  -0.0218   0.00    0.0
2022/12/25 00:28:00.000  -19.269270751  147.055693047    88.1762   6  16   0.0389   0.1126   0.1240   0.0190  -0.0423  -0.0215   0.00    0.0
2022/12/25 00:28:30.000  -19.269270720  147.055692817    88.1710   6  16   0.0382   0.1094   0.1211   0.0183  -0.0403  -0.0212   0.00    0.0
2022/12/25 00:29:00.000  -19.269270889  147.055692691    88.1709   6  16   0.0375   0.1063   0.1182   0.0176  -0.0385  -0.0208   0.00    0.0
2022/12/25 00:29:30.000  -19.269270784  147.055692668    88.1703   6  16   0.0369   0.1035   0.1156   0.0171  -0.0366  -0.0205   0.00    0.0
2022/12/25 00:30:00.000  -19.269270874  147.055692710    88.1455   6  16   0.0363   0.1007   0.1130   0.0166  -0.0350  -0.0201   0.00    0.0
2022/12/25 00:30:30.000  -19.269270942  147.055692648    88.1376   6  16   0.0357   0.0981   0.1106   0.0161  -0.0333  -0.0200   0.00    0.0
2022/12/25 00:31:00.000  -19.269270895  147.055692625    88.0939   6  16   0.0352   0.0956   0.1084   0.0155  -0.0319  -0.0197   0.00    0.0
2022/12/25 00:31:30.000  -19.269270943  147.055692602    88.0578   6  16   0.0347   0.0933   0.1062   0.0151  -0.0305  -0.0196   0.00    0.0
2022/12/25 00:32:00.000  -19.269270911  147.055692665    88.1161   6  16   0.0342   0.0910   0.1042   0.0147  -0.0293  -0.0194   0.00    0.0
2022/12/25 00:32:30.000  -19.269270997  147.055692741    88.1431   6  16   0.0337   0.0888   0.1022   0.0143  -0.0279  -0.0191   0.00    0.0
2022/12/25 00:33:00.000  -19.269270962  147.055692618    88.1328   6  16   0.0333   0.0867   0.1003   0.0136  -0.0267  -0.0190   0.00    0.0
2022/12/25 00:33:30.000  -19.269270823  147.055692584    88.1098   6  16   0.0329   0.0848   0.0985   0.0134  -0.0256  -0.0189   0.00    0.0
2022/12/25 00:34:00.000  -19.269270733  147.055692655    88.1494   6  16   0.0324   0.0829   0.0968   0.0130  -0.0245  -0.0187   0.00    0.0
2022/12/25 00:34:30.000  -19.269270658  147.055693033    88.1597   6  16   0.0321   0.0811   0.0952   0.0126  -0.0234  -0.0186   0.00    0.0
2022/12/25 00:35:00.000  -19.269270832  147.055692841    88.1857   6  16   0.0317   0.0793   0.0936   0.0122  -0.0225  -0.0184   0.00    0.0
2022/12/25 00:35:30.000  -19.269270977  147.055692934    88.2297   6  16   0.0313   0.0776   0.0921   0.0120  -0.0214  -0.0182   0.00    0.0
2022/12/25 00:36:00.000  -19.269270754  147.055692874    88.1917   6  16   0.0311   0.0760   0.0907   0.0115  -0.0207  -0.0182   0.00    0.0
2022/12/25 00:36:30.000  -19.269271014  147.055692926    88.2145   6  16   0.0306   0.0743   0.0893   0.0119  -0.0202  -0.0178   0.00    0.0
2022/12/25 00:37:00.000  -19.269271158  147.055693111    88.2128   6  15   0.0304   0.0729   0.0880   0.0113  -0.0192  -0.0178   0.00    0.0
2022/12/25 00:37:30.000  -19.269271010  147.055692703    88.1702   6  15   0.0301   0.0714   0.0869   0.0110  -0.0181  -0.0177   0.00    0.0
2022/12/25 00:38:00.000  -19.269270913  147.055692780    88.1495   6  15   0.0298   0.0701   0.0858   0.0109  -0.0171  -0.0174   0.00    0.0
2022/12/25 00:38:30.000  -19.269271063  147.055692705    88.1861   6  15   0.0295   0.0688   0.0848   0.0106  -0.0159  -0.0174   0.00    0.0
2022/12/25 00:39:00.000  -19.269270872  147.055692598    88.1715   6  15   0.0293   0.0675   0.0839   0.0103  -0.0151  -0.0172   0.00    0.0
2022/12/25 00:39:30.000  -19.269270866  147.055693044    88.2172   6  15   0.0290   0.0663   0.0829   0.0101  -0.0140  -0.0170   0.00    0.0
2022/12/25 00:40:00.000  -19.269271019  147.055692975    88.2376   6  15   0.0288   0.0651   0.0820   0.0099  -0.0132  -0.0171   0.00    0.0
2022/12/25 00:40:30.000  -19.269271150  147.055692843    88.1883   6  15   0.0286   0.0640   0.0812   0.0097  -0.0123  -0.0169   0.00    0.0
2022/12/25 00:41:00.000  -19.269270965  147.055692730    88.1767   6  15   0.0284   0.0630   0.0803   0.0095  -0.0112  -0.0168   0.00    0.0
2022/12/25 00:41:30.000  -19.269271028  147.055692595    88.0913   6  15   0.0281   0.0619   0.0795   0.0091  -0.0104  -0.0166   0.00    0.0
2022/12/25 00:42:00.000  -19.269270872  147.055692675    88.1247   6  15   0.0279   0.0609   0.0787   0.0089  -0.0096  -0.0166   0.00    0.0
2022/12/25 00:42:30.000  -19.269270947  147.055692832    88.1893   6  15   0.0278   0.0599   0.0779   0.0088  -0.0084  -0.0164   0.00    0.0
2022/12/25 00:43:00.000  -19.269270860  147.055692550    88.1717   6  16   0.0275   0.0590   0.0772   0.0085  -0.0078  -0.0165   0.00    0.0
2022/12/25 00:43:30.000  -19.269270883  147.055692501    88.1315   6  16   0.0273   0.0580   0.0765   0.0081  -0.0068  -0.0163   0.00    0.0
2022/12/25 00:44:00.000  -19.269270932  147.055692527    88.1133   6  16   0.0272   0.0572   0.0759   0.0080  -0.0062  -0.0164   0.00    0.0
2022/12/25 00:44:30.000  -19.269270906  147.055692609    88.1229   6  17   0.0270   0.0563   0.0752   0.0079  -0.0050  -0.0164   0.00    0.0
2022/12/25 00:45:00.000  -19.269270956  147.055692609    88.1376   6  16   0.0267   0.0555   0.0745   0.0076  -0.0038  -0.0163   0.00    0.0
2022/12/25 00:45:30.000  -19.269270895  147.055692558    88.1484   6  16   0.0266   0.0548   0.0739   0.0074   0.0011  -0.0163   0.00    0.0
2022/12/25 00:46:00.000  -19.269271053  147.055692707    88.1403   6  16   0.0264   0.0539   0.0733   0.0070   0.0016  -0.0164   0.00    0.0
2022/12/25 00:46:30.000  -19.269270858  147.055692748    88.1488   6  16   0.0263   0.0532   0.0727   0.0068   0.0039  -0.0164   0.00    0.0
2022/12/25 00:47:00.000  -19.269270919  147.055692620    88.1200   6  16   0.0262   0.0525   0.0722   0.0065   0.0049  -0.0163   0.00    0.0
2022/12/25 00:47:30.000  -19.269271194  147.055692675    88.1861   6  16   0.0260   0.0519   0.0717   0.0065   0.0052  -0.0164   0.00    0.0
2022/12/25 00:48:00.000  -19.269270922  147.055692709    88.1072   6  16   0.0257   0.0512   0.0711   0.0062   0.0063  -0.0163   0.00    0.0
2022/12/25 00:48:30.000  -19.269270980  147.055692655    88.1273   6  16   0.0257   0.0505   0.0707   0.0060   0.0065  -0.0164   0.00    0.0
2022/12/25 00:49:00.000  -19.269270942  147.055692670    88.1128   6  16   0.0255   0.0499   0.0702   0.0060   0.0068  -0.0163   0.00    0.0
2022/12/25 00:49:30.000  -19.269270977  147.055692739    88.1155   6  16   0.0254   0.0492   0.0698   0.0053   0.0069  -0.0162   0.00    0.0
2022/12/25 00:50:00.000  -19.269270885  147.055692739    88.1295   6  16   0.0253   0.0487   0.0693   0.0056   0.0080  -0.0163   0.00    0.0
2022/12/25 00:50:30.000  -19.269270844  147.055692831    88.0916   6  16   0.0251   0.0481   0.0688   0.0050   0.0079  -0.0162   0.00    0.0
2022/12/25 00:51:00.000  -19.269270931  147.055692794    88.1167   6  15   0.0252   0.0477   0.0696   0.0029   0.0017  -0.0152   0.00    0.0
2022/12/25 00:51:30.000  -19.269271019  147.055692863    88.1490   6  15   0.0251   0.0472   0.0693   0.0024   0.0046  -0.0152   0.00    0.0
2022/12/25 00:52:00.000  -19.269270936  147.055692913    88.1304   6  15   0.0250   0.0468   0.0690   0.0023   0.0060  -0.0149   0.00    0.0
2022/12/25 00:52:30.000  -19.269270990  147.055692841    88.1064   6  15   0.0249   0.0463   0.0687   0.0021   0.0068  -0.0150   0.00    0.0
2022/12/25 00:53:00.000  -19.269271015  147.055692771    88.1094   6  15   0.0247   0.0458   0.0684   0.0022   0.0074  -0.0149   0.00    0.0
2022/12/25 00:53:30.000  -19.269270996  147.055692885    88.1457   6  15   0.0246   0.0454   0.0683   0.0014   0.0080  -0.0151   0.00    0.0
2022/12/25 00:54:00.000  -19.269270988  147.055692716    88.1205   6  15   0.0245   0.0449   0.0681   0.0020   0.0082  -0.0151   0.00    0.0
2022/12/25 00:54:30.000  -19.269271116  147.055692770    88.1066   6  15   0.0244   0.0445   0.0678  -0.0006   0.0087  -0.0150   0.00    0.0
2022/12/25 00:55:00.000  -19.269270788  147.055692762    88.1259   6  15   0.0243   0.0441   0.0676   0.0007   0.0094  -0.0150   0.00    0.0
2022/12/25 00:55:30.000  -19.269270966  147.055692776    88.1389   6  15   0.0242   0.0438   0.0674   0.0006   0.0099  -0.0150   0.00    0.0
2022/12/25 00:56:00.000  -19.269271234  147.055692740    88.1784   6  15   0.0241   0.0434   0.0672  -0.0017   0.0103  -0.0147   0.00    0.0
2022/12/25 00:56:30.000  -19.269271087  147.055692841    88.1314   6  15   0.0240   0.0430   0.0671   0.0011   0.0107  -0.0148   0.00    0.0
2022/12/25 00:57:00.000  -19.269270764  147.055692623    88.0686   6  15   0.0239   0.0426   0.0669   0.0013   0.0110  -0.0149   0.00    0.0
2022/12/25 00:57:30.000  -19.269271086  147.055692823    88.1112   6  15   0.0229   0.0421   0.0652   0.0038   0.0093  -0.0110   0.00    0.0
2022/12/25 00:58:00.000  -19.269271117  147.055692873    88.0993   6  15   0.0226   0.0418   0.0645   0.0048   0.0091  -0.0097   0.00    0.0
2022/12/25 00:58:30.000  -19.269271009  147.055692853    88.1145   6  15   0.0236   0.0416   0.0665  -0.0020   0.0122  -0.0147   0.00    0.0
2022/12/25 00:59:00.000  -19.269271082  147.055692798    88.0245   6  15   0.0227   0.0411   0.0647   0.0037   0.0103  -0.0108   0.00    0.0
2022/12/25 00:59:30.000  -19.269270874  147.055692915    88.0852   6  15   0.0222   0.0408   0.0641   0.0043   0.0101  -0.0094   0.00    0.0
2022/12/25 01:00:00.000  -19.269271060  147.055692770    88.0897   6  15   0.0221   0.0403   0.0636   0.0048   0.0100  -0.0082   0.00    0.0
2022/12/25 01:00:30.000  -19.269271190  147.055692858    88.1779   6  15   0.0232   0.0404   0.0661  -0.0030   0.0134  -0.0146   0.00    0.0
2022/12/25 01:01:00.000  -19.269270971  147.055692864    88.1216   6  15   0.0231   0.0401   0.0661  -0.0027   0.0138  -0.0146   0.00    0.0
2022/12/25 01:01:30.000  -19.269270927  147.055692776    88.1149   6  15   0.0231   0.0398   0.0660  -0.0029   0.0142  -0.0145   0.00    0.0
2022/12/25 01:02:00.000  -19.269271011  147.055692716    88.0986   6  15   0.0230   0.0395   0.0660  -0.0028   0.0143  -0.0145   0.00    0.0
2022/12/25 01:02:30.000  -19.269271014  147.055692876    88.1043   6  15   0.0220   0.0391   0.0642   0.0040   0.0126  -0.0104   0.00    0.0
2022/12/25 01:03:00.000  -19.269271099  147.055693085    88.1198   6  15   0.0216   0.0388   0.0635   0.0044   0.0122  -0.0091   0.00    0.0
2022/12/25 01:03:30.000  -19.269270809  147.055692743    88.0920   6  15   0.0214   0.0385   0.0631   0.0053   0.0123  -0.0080   0.00    0.0
2022/12/25 01:04:00.000  -19.269271136  147.055692917    88.1127   6  15   0.0227   0.0384   0.0659  -0.0034   0.0151  -0.0144   0.00    0.0
2022/12/25 01:04:30.000  -19.269271110  147.055692804    88.1026   6  15   0.0225   0.0383   0.0658  -0.0034   0.0158  -0.0144   0.00    0.0
2022/12/25 01:05:00.000  -19.269271051  147.055692962    88.0975   6  15   0.0217   0.0378   0.0641   0.0031   0.0140  -0.0106   0.00    0.0
2022/12/25 01:05:30.000  -19.269271037  147.055692850    88.1033   6  15   0.0213   0.0375   0.0637   0.0036   0.0132  -0.0082   0.00    0.0
2022/12/25 01:06:00.000  -19.269271160  147.055692938    88.1218   6  15   0.0211   0.0373   0.0634   0.0046   0.0129  -0.0073   0.00    0.0
2022/12/25 01:06:30.000  -19.269270918  147.055692612    88.0562   6  15   0.0208   0.0370   0.0632   0.0045   0.0130  -0.0062   0.00    0.0
2022/12/25 01:07:00.000  -19.269271057  147.055693017    88.1225   6  15   0.0207   0.0368   0.0631   0.0050   0.0131  -0.0058   0.00    0.0
2022/12/25 01:07:30.000  -19.269271029  147.055692926    88.1215   6  15   0.0206   0.0366   0.0630   0.0052   0.0131  -0.0052   0.00    0.0
2022/12/25 01:08:00.000  -19.269270881  147.055692789    88.1018   6  15   0.0205   0.0364   0.0630   0.0052   0.0134  -0.0048   0.00    0.0
2022/12/25 01:08:30.000  -19.269271000  147.055692839    88.1060   6  15   0.0204   0.0362   0.0630   0.0052   0.0137  -0.0049   0.00    0.0
2022/12/25 01:09:00.000  -19.269271107  147.055692929    88.0963   6  15   0.0203   0.0360   0.0630   0.0052   0.0138  -0.0046   0.00    0.0
2022/12/25 01:09:30.000  -19.269271197  147.055693148    88.1287   6  15   0.0208   0.0358   0.0631   0.0051   0.0140  -0.0030   0.00    0.0
2022/12/25 01:10:00.000  -19.269271076  147.055693069    88.1260   6  15   0.0208   0.0356   0.0632   0.0052   0.0139  -0.0013   0.00    0.0
2022/12/25 01:10:30.000  -19.269270839  147.055692855    88.1205   6  15   0.0204   0.0354   0.0631   0.0055   0.0142  -0.0034   0.00    0.0
2022/12/25 01:11:00.000  -19.269270911  147.055692563    88.1022   6  15   0.0206   0.0352   0.0633   0.0055   0.0140   0.0009   0.00    0.0
2022/12/25 01:11:30.000  -19.269270945  147.055692995    88.0904   6  15   0.0206   0.0351   0.0634   0.0056   0.0143  -0.0016   0.00    0.0
2022/12/25 01:12:00.000  -19.269271001  147.055693042    88.0990   6  15   0.0205   0.0348   0.0635   0.0053   0.0146   0.0005   0.00    0.0
2022/12/25 01:12:30.000  -19.269271121  147.055693153    88.1382   6  15   0.0202   0.0348   0.0636   0.0060   0.0148  -0.0031   0.00    0.0
2022/12/25 01:13:00.000  -19.269270979  147.055693167    88.1355   6  15   0.0200   0.0346   0.0637   0.0059   0.0151  -0.0040   0.00    0.0
2022/12/25 01:13:30.000  -19.269270960  147.055693260    88.1465   6  15   0.0203   0.0344   0.0639   0.0059   0.0149   0.0007   0.00    0.0
2022/12/25 01:14:00.000  -19.269270913  147.055693048    88.1049   6  15   0.0202   0.0343   0.0640   0.0057   0.0152  -0.0002   0.00    0.0
2022/12/25 01:14:30.000  -19.269270961  147.055693085    88.1191   6  15   0.0202   0.0341   0.0642   0.0059   0.0154  -0.0015   0.00    0.0
2022/12/25 01:15:00.000  -19.269270820  147.055692943    88.1085   6  15   0.0201   0.0340   0.0643   0.0059   0.0155   0.0024   0.00    0.0
2022/12/25 01:15:30.000  -19.269270842  147.055692877    88.1171   6  15   0.0201   0.0339   0.0645   0.0060   0.0157  -0.0009   0.00    0.0
2022/12/25 01:16:00.000  -19.269271018  147.055692750    88.1047   6  15   0.0200   0.0337   0.0646   0.0060   0.0159   0.0020   0.00    0.0
2022/12/25 01:16:30.000  -19.269271170  147.055693243    88.1655   6  15   0.0200   0.0335   0.0649   0.0058   0.0159   0.0002   0.00    0.0
2022/12/25 01:17:00.000  -19.269270971  147.055693136    88.1213   6  15   0.0198   0.0336   0.0652   0.0054   0.0165  -0.0031   0.00    0.0
2022/12/25 01:17:30.000  -19.269271005  147.055693035    88.1254   6  15   0.0200   0.0335   0.0654   0.0054   0.0168  -0.0032   0.00    0.0
2022/12/25 01:18:00.000  -19.269271109  147.055693144    88.1775   6  15   0.0199   0.0334   0.0656   0.0057   0.0168  -0.0031   0.00    0.0
2022/12/25 01:18:30.000  -19.269270909  147.055693042    88.1241   6  15   0.0198   0.0333   0.0658   0.0055   0.0170  -0.0032   0.00    0.0
2022/12/25 01:19:00.000  -19.269271070  147.055693127    88.1508   6  15   0.0198   0.0331   0.0660   0.0054   0.0172  -0.0032   0.00    0.0
2022/12/25 01:19:30.000  -19.269270800  147.055692734    88.1067   6  15   0.0196   0.0331   0.0662   0.0054   0.0174  -0.0032   0.00    0.0
2022/12/25 01:20:00.000  -19.269270906  147.055693071    88.1190   6  15   0.0198   0.0328   0.0665   0.0058   0.0174  -0.0021   0.00    0.0
2022/12/25 01:21:30.000  -19.269271198  147.055692950    88.0866   6  15   0.0685   0.0462   0.2783   0.0177  -0.0835   0.0704   0.00    0.0
2022/12/25 01:22:00.000  -19.269270812  147.055693146    88.1579   6  15   0.0515   0.0408   0.2063   0.0158  -0.0593   0.0506   0.00    0.0
2022/12/25 01:22:30.000  -19.269270919  147.055692984    88.1497   6  15   0.0444   0.0388   0.1760   0.0151  -0.0486   0.0420   0.00    0.0
2022/12/25 01:23:00.000  -19.269271037  147.055693016    88.2083   6  15   0.0404   0.0378   0.1587   0.0148  -0.0423   0.0368   0.00    0.0
2022/12/25 01:23:30.000  -19.269271008  147.055692780    88.2214   6  15   0.0378   0.0372   0.1474   0.0147  -0.0379   0.0335   0.00    0.0
2022/12/25 01:24:00.000  -19.269270926  147.055692975    88.2075   6  15   0.0360   0.0367   0.1395   0.0146  -0.0347   0.0309   0.00    0.0
2022/12/25 01:24:30.000  -19.269270859  147.055693280    88.2156   6  14   0.0349   0.0367   0.1375   0.0140  -0.0345   0.0307   0.00    0.0
2022/12/25 01:25:00.000  -19.269271044  147.055692910    88.1921   6  14   0.0339   0.0365   0.1349   0.0137  -0.0332   0.0300   0.00    0.0
2022/12/25 01:25:30.000  -19.269270749  147.055692972    88.1982   6  14   0.0331   0.0364   0.1325   0.0138  -0.0320   0.0294   0.00    0.0
2022/12/25 01:26:00.000  -19.269270999  147.055693328    88.2080   6  14   0.0325   0.0362   0.1305   0.0138  -0.0310   0.0287   0.00    0.0
2022/12/25 01:26:30.000  -19.269270799  147.055693014    88.1499   6  15   0.0319   0.0361   0.1286   0.0138  -0.0299   0.0281   0.00    0.0
2022/12/25 01:27:00.000  -19.269270891  147.055692981    88.1876   6  15   0.0315   0.0358   0.1260   0.0136  -0.0282   0.0278   0.00    0.0
2022/12/25 01:27:30.000  -19.269270782  147.055692905    88.1794   6  15   0.0312   0.0357   0.1241   0.0137  -0.0269   0.0272   0.00    0.0
2022/12/25 01:28:00.000  -19.269270970  147.055692987    88.2092   6  15   0.0307   0.0356   0.1224   0.0138  -0.0259   0.0268   0.00    0.0
2022/12/25 01:28:30.000  -19.269270801  147.055692955    88.1973   6  15   0.0306   0.0354   0.1209   0.0139  -0.0249   0.0263   0.00    0.0
2022/12/25 01:29:00.000  -19.269270880  147.055693143    88.2016   6  15   0.0303   0.0353   0.1195   0.0138  -0.0239   0.0258   0.00    0.0
2022/12/25 01:29:30.000  -19.269270908  147.055693085    88.1853   6  15   0.0300   0.0352   0.1181   0.0138  -0.0229   0.0252   0.00    0.0
2022/12/25 01:30:00.000  -19.269270907  147.055692986    88.2017   6  15   0.0298   0.0352   0.1168   0.0140  -0.0219   0.0247   0.00    0.0
2022/12/25 01:30:30.000  -19.269271132  147.055693430    88.2153   6  15   0.0296   0.0350   0.1155   0.0139  -0.0210   0.0241   0.00    0.0
2022/12/25 01:31:00.000  -19.269270826  147.055692977    88.1952   6  15   0.0295   0.0350   0.1143   0.0140  -0.0201   0.0238   0.00    0.0
2022/12/25 01:31:30.000  -19.269270931  147.055692930    88.2198   6  15   0.0293   0.0349   0.1131   0.0141  -0.0191   0.0232   0.00    0.0
2022/12/25 01:32:00.000  -19.269270968  147.055692947    88.2134   6  15   0.0291   0.0348   0.1120   0.0141  -0.0180   0.0225   0.00    0.0
2022/12/25 01:32:30.000  -19.269271083  147.055693366    88.1913   6  15   0.0290   0.0347   0.1109   0.0142  -0.0170   0.0222   0.00    0.0
2022/12/25 01:33:00.000  -19.269270931  147.055692927    88.1596   6  15   0.0289   0.0346   0.1098   0.0142  -0.0158   0.0216   0.00    0.0
2022/12/25 01:33:30.000  -19.269270905  147.055693083    88.1949   6  15   0.0288   0.0345   0.1087   0.0142  -0.0147   0.0212   0.00    0.0
2022/12/25 01:34:00.000  -19.269271051  147.055693215    88.1899   6  15   0.0286   0.0345   0.1077   0.0142  -0.0135   0.0205   0.00    0.0
2022/12/25 01:34:30.000  -19.269270942  147.055693085    88.1928   6  15   0.0285   0.0344   0.1067   0.0143  -0.0123   0.0199   0.00    0.0
2022/12/25 01:35:00.000  -19.269270908  147.055693191    88.1506   6  15   0.0284   0.0343   0.1057   0.0144  -0.0109   0.0193   0.00    0.0
2022/12/25 01:35:30.000  -19.269270994  147.055693044    88.1740   6  15   0.0283   0.0342   0.1048   0.0142  -0.0093   0.0188   0.00    0.0
2022/12/25 01:36:00.000  -19.269270770  147.055692803    88.1763   6  15   0.0282   0.0342   0.1039   0.0144  -0.0075   0.0182   0.00    0.0
2022/12/25 01:36:30.000  -19.269270872  147.055692990    88.1771   6  14   0.0284   0.0341   0.1095   0.0141  -0.0091   0.0218   0.00    0.0
2022/12/25 01:37:00.000  -19.269270835  147.055693054    88.1968   6  14   0.0283   0.0341   0.1087   0.0142  -0.0076   0.0212   0.00    0.0
2022/12/25 01:37:30.000  -19.269270840  147.055693159    88.1686   6  14   0.0281   0.0341   0.1079   0.0142  -0.0051   0.0207   0.00    0.0
2022/12/25 01:38:00.000  -19.269270799  147.055693013    88.1601   6  14   0.0281   0.0339   0.1072   0.0143   0.0005   0.0200   0.00    0.0
2022/12/25 01:38:30.000  -19.269270952  147.055693060    88.1886   6  14   0.0280   0.0340   0.1066   0.0142   0.0055   0.0193   0.00    0.0
2022/12/25 01:39:00.000  -19.269270931  147.055693186    88.2097   6  14   0.0280   0.0338   0.1059   0.0143   0.0075   0.0186   0.00    0.0
2022/12/25 01:39:30.000  -19.269270907  147.055693152    88.2184   6  14   0.0278   0.0338   0.1052   0.0144   0.0095   0.0181   0.00    0.0
2022/12/25 01:40:00.000  -19.269270996  147.055693187    88.2204   6  14   0.0277   0.0337   0.1045   0.0143   0.0107   0.0172   0.00    0.0
2022/12/25 01:40:30.000  -19.269270865  147.055693183    88.1935   6  14   0.0276   0.0336   0.1039   0.0143   0.0119   0.0169   0.00    0.0
2022/12/25 01:41:00.000  -19.269270915  147.055693294    88.1779   6  14   0.0276   0.0337   0.1033   0.0145   0.0131   0.0160   0.00    0.0
2022/12/25 01:41:30.000  -19.269270984  147.055693376    88.2060   6  14   0.0275   0.0336   0.1027   0.0143   0.0141   0.0156   0.00    0.0
2022/12/25 01:42:00.000  -19.269270838  147.055693083    88.1556   6  14   0.0273   0.0336   0.1022   0.0143   0.0152   0.0150   0.00    0.0
2022/12/25 01:42:30.000  -19.269270811  147.055693176    88.1626   6  14   0.0273   0.0335   0.1017   0.0144   0.0158   0.0146   0.00    0.0
2022/12/25 01:43:00.000  -19.269270949  147.055693211    88.1621   6  14   0.0272   0.0335   0.1012   0.0144   0.0168   0.0136   0.00    0.0
2022/12/25 01:43:30.000  -19.269270995  147.055693344    88.1678   6  14   0.0271   0.0332   0.1006   0.0144   0.0172   0.0134   0.00    0.0
2022/12/25 01:44:00.000  -19.269270984  147.055693373    88.1477   6  14   0.0269   0.0332   0.1002   0.0143   0.0181   0.0127   0.00    0.0
2022/12/25 01:44:30.000  -19.269270992  147.055693208    88.1547   6  14   0.0269   0.0332   0.0998   0.0144   0.0188   0.0120   0.00    0.0
2022/12/25 01:45:00.000  -19.269271014  147.055693415    88.1294   6  14   0.0268   0.0331   0.0994   0.0144   0.0195   0.0114   0.00    0.0
2022/12/25 01:45:30.000  -19.269270772  147.055693109    88.0941   6  14   0.0269   0.0330   0.0990   0.0143   0.0201   0.0111   0.00    0.0
2022/12/25 01:46:00.000  -19.269270906  147.055693206    88.1478   6  14   0.0268   0.0330   0.0986   0.0141   0.0208   0.0101   0.00    0.0
2022/12/25 01:46:30.000  -19.269271112  147.055693321    88.1774   6  14   0.0266   0.0330   0.0982   0.0143   0.0214   0.0099   0.00    0.0
2022/12/25 01:47:00.000  -19.269270765  147.055693272    88.1174   6  14   0.0264   0.0329   0.0979   0.0141   0.0220   0.0090   0.00    0.0
2022/12/25 01:47:30.000  -19.269270900  147.055693224    88.1309   6  14   0.0264   0.0329   0.0976   0.0140   0.0225   0.0085   0.00    0.0
2022/12/25 01:48:00.000  -19.269271049  147.055693244    88.1448   6  14   0.0264   0.0328   0.0973   0.0142   0.0230   0.0084   0.00    0.0
2022/12/25 01:48:30.000  -19.269270911  147.055693159    88.1337   6  14   0.0262   0.0327   0.0970   0.0140   0.0235   0.0080   0.00    0.0
2022/12/25 01:49:00.000  -19.269270837  147.055693173    88.1543   6  14   0.0263   0.0326   0.0967   0.0139   0.0240   0.0073   0.00    0.0
2022/12/25 01:49:30.000  -19.269271028  147.055693311    88.1792   6  14   0.0261   0.0326   0.0964   0.0138   0.0245   0.0071   0.00    0.0
2022/12/25 01:50:00.000  -19.269271182  147.055693213    88.1966   6  14   0.0260   0.0326   0.0961   0.0137   0.0249   0.0067   0.00    0.0
2022/12/25 01:50:30.000  -19.269270968  147.055693260    88.1350   6  14   0.0259   0.0325   0.0959   0.0138   0.0253   0.0067   0.00    0.0
2022/12/25 01:51:00.000  -19.269270916  147.055693249    88.0866   6  14   0.0259   0.0325   0.0956   0.0136   0.0258   0.0063   0.00    0.0
2022/12/25 01:51:30.000  -19.269271008  147.055693192    88.1326   6  14   0.0282   0.0325   0.0972   0.0144   0.0255  -0.0137   0.00    0.0
2022/12/25 01:52:00.000  -19.269270985  147.055693266    88.1323   6  14   0.0272   0.0324   0.0968   0.0143   0.0258  -0.0115   0.00    0.0
2022/12/25 01:52:30.000  -19.269270877  147.055693057    88.1308   6  14   0.0269   0.0324   0.0966   0.0142   0.0260  -0.0109   0.00    0.0
2022/12/25 01:53:00.000  -19.269271003  147.055693177    88.1069   6  14   0.0266   0.0324   0.0966   0.0141   0.0263  -0.0112   0.00    0.0
2022/12/25 01:53:30.000  -19.269271072  147.055693158    88.1932   6  14   0.0264   0.0324   0.0965   0.0141   0.0264  -0.0112   0.00    0.0
2022/12/25 01:54:00.000  -19.269271070  147.055692900    88.1254   6  15   0.0280   0.0324   0.0977   0.0139   0.0267  -0.0171   0.00    0.0
2022/12/25 01:54:30.000  -19.269270898  147.055693151    88.1490   6  15   0.0269   0.0312   0.0895   0.0133   0.0198  -0.0176   0.00    0.0
2022/12/25 01:55:00.000  -19.269270959  147.055693206    88.1353   6  15   0.0279   0.0306   0.0872   0.0131   0.0167  -0.0206   0.00    0.0
2022/12/25 01:55:30.000  -19.269270974  147.055693204    88.1221   6  15   0.0278   0.0304   0.0856   0.0129   0.0150  -0.0212   0.00    0.0
2022/12/25 01:56:00.000  -19.269270970  147.055693048    88.1649   6  15   0.0279   0.0302   0.0846   0.0127   0.0137  -0.0219   0.00    0.0
2022/12/25 01:56:30.000  -19.269271042  147.055693129    88.1403   6  15   0.0278   0.0300   0.0838   0.0127   0.0127  -0.0221   0.00    0.0
2022/12/25 01:57:00.000  -19.269271183  147.055693167    88.1627   6  15   0.0278   0.0298   0.0831   0.0126   0.0120  -0.0226   0.00    0.0
2022/12/25 01:57:30.000  -19.269271048  147.055693249    88.1152   6  15   0.0277   0.0297   0.0826   0.0126   0.0115  -0.0228   0.00    0.0
2022/12/25 01:58:00.000  -19.269270992  147.055693104    88.1448   6  15   0.0277   0.0296   0.0821   0.0125   0.0111  -0.0231   0.00    0.0
2022/12/25 01:58:30.000  -19.269270985  147.055693102    88.1600   6  15   0.0277   0.0295   0.0817   0.0124   0.0106  -0.0234   0.00    0.0
2022/12/25 01:59:00.000  -19.269270931  147.055693109    88.1229   6  15   0.0277   0.0293   0.0813   0.0125   0.0102  -0.0236   0.00    0.0
2022/12/25 01:59:30.000  -19.269271033  147.055693112    88.1785   6  15   0.0276   0.0292   0.0809   0.0123   0.0099  -0.0238   0.00    0.0
2022/12/25 02:00:00.000  -19.269271080  147.055693139    88.1659   6  15   0.0275   0.0292   0.0805   0.0121   0.0098  -0.0239   0.00    0.0
2022/12/25 02:00:30.000  -19.269271090  147.055693157    88.2109   6  15   0.0273   0.0291   0.0798   0.0122   0.0092  -0.0235   0.00    0.0
2022/12/25 02:01:00.000  -19.269270917  147.055693188    88.1025   6  15   0.0271   0.0290   0.0793   0.0122   0.0091  -0.0233   0.00    0.0
2022/12/25 02:01:30.000  -19.269271038  147.055693066    88.1520   6  15   0.0270   0.0288   0.0789   0.0123   0.0087  -0.0234   0.00    0.0
2022/12/25 02:02:00.000  -19.269271056  147.055693159    88.1471   6  16   0.0270   0.0288   0.0785   0.0120   0.0086  -0.0234   0.00    0.0
2022/12/25 02:02:30.000  -19.269270978  147.055693262    88.0700   6  16   0.0269   0.0287   0.0782   0.0120   0.0085  -0.0234   0.00    0.0
2022/12/25 02:03:00.000  -19.269270980  147.055693332    88.0609   6  16   0.0272   0.0286   0.0786   0.0119   0.0087  -0.0247   0.00    0.0
2022/12/25 02:03:30.000  -19.269270840  147.055693129    88.0729   6  16   0.0273   0.0284   0.0784   0.0117   0.0087  -0.0247   0.00    0.0
2022/12/25 02:04:00.000  -19.269270997  147.055693190    88.1063   6  16   0.0272   0.0284   0.0781   0.0117   0.0087  -0.0249   0.00    0.0
2022/12/25 02:04:30.000  -19.269270909  147.055693154    88.1266   6  15   0.0272   0.0283   0.0778   0.0116   0.0086  -0.0249   0.00    0.0
2022/12/25 02:05:00.000  -19.269271090  147.055693157    88.1028   6  15   0.0270   0.0282   0.0775   0.0116   0.0087  -0.0248   0.00    0.0
2022/12/25 02:05:30.000  -19.269270972  147.055693106    88.1611   6  15   0.0271   0.0281   0.0772   0.0115   0.0085  -0.0249   0.00    0.0
2022/12/25 02:06:00.000  -19.269271075  147.055693179    88.1282   6  16   0.0269   0.0280   0.0769   0.0114   0.0085  -0.0249   0.00    0.0
2022/12/25 02:06:30.000  -19.269271023  147.055692992    88.1566   6  16   0.0270   0.0279   0.0767   0.0112   0.0086  -0.0249   0.00    0.0
2022/12/25 02:07:00.000  -19.269271002  147.055693165    88.1217   6  16   0.0269   0.0279   0.0764   0.0111   0.0083  -0.0247   0.00    0.0
2022/12/25 02:07:30.000  -19.269271048  147.055693140    88.1054   6  16   0.0268   0.0278   0.0761   0.0111   0.0082  -0.0247   0.00    0.0
2022/12/25 02:08:00.000  -19.269271134  147.055693230    88.1526   6  16   0.0268   0.0277   0.0758   0.0108   0.0082  -0.0246   0.00    0.0
2022/12/25 02:08:30.000  -19.269271071  147.055693116    88.1514   6  16   0.0267   0.0276   0.0756   0.0108   0.0084  -0.0247   0.00    0.0
2022/12/25 02:09:00.000  -19.269270938  147.055693159    88.1072   6  16   0.0266   0.0276   0.0753   0.0108   0.0082  -0.0246   0.00    0.0
2022/12/25 02:09:30.000  -19.269270966  147.055693226    88.1025   6  16   0.0264   0.0275   0.0745   0.0107   0.0081  -0.0239   0.00    0.0
2022/12/25 02:10:00.000  -19.269271011  147.055693166    88.0635   6  16   0.0261   0.0274   0.0741   0.0106   0.0080  -0.0235   0.00    0.0
2022/12/25 02:10:30.000  -19.269270875  147.055693049    88.1712   6  16   0.0260   0.0273   0.0737   0.0107   0.0079  -0.0233   0.00    0.0
2022/12/25 02:11:00.000  -19.269270976  147.055693185    88.1008   6  16   0.0259   0.0273   0.0734   0.0106   0.0080  -0.0231   0.00    0.0
2022/12/25 02:11:30.000  -19.269270974  147.055693256    88.1041   6  16   0.0263   0.0272   0.0740   0.0103   0.0085  -0.0243   0.00    0.0
2022/12/25 02:12:00.000  -19.269270930  147.055693183    88.1617   6  16   0.0263   0.0271   0.0737   0.0103   0.0083  -0.0242   0.00    0.0
2022/12/25 02:12:30.000  -19.269270961  147.055693120    88.1568   6  16   0.0262   0.0269   0.0735   0.0101   0.0086  -0.0241   0.00    0.0
2022/12/25 02:13:00.000  -19.269271030  147.055693199    88.2057   6  16   0.0261   0.0269   0.0732   0.0101   0.0085  -0.0240   0.00    0.0
2022/12/25 02:13:30.000  -19.269271084  147.055693256    88.1252   6  16   0.0260   0.0268   0.0729   0.0101   0.0084  -0.0239   0.00    0.0
2022/12/25 02:14:00.000  -19.269270961  147.055693264    88.1037   6  16   0.0260   0.0268   0.0727   0.0098   0.0087  -0.0238   0.00    0.0
2022/12/25 02:14:30.000  -19.269271034  147.055693151    88.1431   6  16   0.0258   0.0266   0.0724   0.0099   0.0086  -0.0236   0.00    0.0
2022/12/25 02:15:00.000  -19.269270933  147.055693145    88.0915   6  16   0.0258   0.0266   0.0721   0.0097   0.0086  -0.0235   0.00    0.0
2022/12/25 02:15:30.000  -19.269270963  147.055693224    88.0853   6  16   0.0257   0.0265   0.0719   0.0098   0.0086  -0.0234   0.00    0.0
2022/12/25 02:16:00.000  -19.269270991  147.055693272    88.1040   6  16   0.0257   0.0265   0.0717   0.0096   0.0087  -0.0234   0.00    0.0
2022/12/25 02:16:30.000  -19.269270871  147.055693145    88.0954   6  16   0.0256   0.0264   0.0714   0.0095   0.0086  -0.0233   0.00    0.0
2022/12/25 02:17:00.000  -19.269270825  147.055693063    88.1560   6  16   0.0259   0.0263   0.0711   0.0094   0.0087  -0.0231   0.00    0.0
2022/12/25 02:17:30.000  -19.269271002  147.055693290    88.1236   6  16   0.0259   0.0263   0.0709   0.0093   0.0086  -0.0230   0.00    0.0
2022/12/25 02:18:00.000  -19.269271032  147.055693242    88.1309   6  16   0.0258   0.0262   0.0707   0.0092   0.0087  -0.0229   0.00    0.0
2022/12/25 02:18:30.000  -19.269271073  147.055693048    88.2108   6  16   0.0258   0.0261   0.0704   0.0092   0.0086  -0.0228   0.00    0.0
2022/12/25 02:19:00.000  -19.269271036  147.055693357    88.0915   6  16   0.0258   0.0261   0.0702   0.0090   0.0087  -0.0228   0.00    0.0
2022/12/25 02:19:30.000  -19.269270995  147.055693232    88.1410   6  16   0.0257   0.0261   0.0699   0.0090   0.0086  -0.0226   0.00    0.0
2022/12/25 02:20:00.000  -19.269271063  147.055693124    88.1092   6  16   0.0255   0.0260   0.0697   0.0090   0.0086  -0.0224   0.00    0.0
2022/12/25 02:20:30.000  -19.269270942  147.055693176    88.0454   6  16   0.0256   0.0259   0.0695   0.0088   0.0086  -0.0224   0.00    0.0
2022/12/25 02:21:00.000  -19.269271000  147.055693207    88.1724   6  16   0.0255   0.0259   0.0693   0.0086   0.0088  -0.0222   0.00    0.0
2022/12/25 02:22:30.000  -19.269270766  147.055693079    88.1728   6  16   0.0484   0.0315   0.0796  -0.0216  -0.0176  -0.0266   0.00    0.0
2022/12/25 02:23:00.000  -19.269270726  147.055693125    88.1320   6  16   0.0396   0.0288   0.0745  -0.0141  -0.0109  -0.0259   0.00    0.0
2022/12/25 02:23:30.000  -19.269270823  147.055693227    88.1103   6  16   0.0364   0.0279   0.0726  -0.0103  -0.0076  -0.0257   0.00    0.0
2022/12/25 02:24:00.000  -19.269270811  147.055693233    88.1199   6  16   0.0346   0.0273   0.0716  -0.0082  -0.0054  -0.0257   0.00    0.0
2022/12/25 02:24:30.000  -19.269271039  147.055693420    87.9915   6  16   0.0336   0.0270   0.0710  -0.0061  -0.0034  -0.0258   0.00    0.0
2022/12/25 02:25:00.000  -19.269271030  147.055693163    88.1376   6  16   0.0328   0.0268   0.0705  -0.0047  -0.0022  -0.0256   0.00    0.0
2022/12/25 02:25:30.000  -19.269270732  147.055692877    88.1862   6  16   0.0323   0.0266   0.0701  -0.0022  -0.0010  -0.0256   0.00    0.0
2022/12/25 02:26:00.000  -19.269270882  147.055693220    88.1203   6  16   0.0319   0.0265   0.0699   0.0023   0.0013  -0.0257   0.00    0.0
2022/12/25 02:26:30.000  -19.269270929  147.055693334    88.1089   6  16   0.0315   0.0263   0.0696   0.0040   0.0021  -0.0256   0.00    0.0
2022/12/25 02:27:00.000  -19.269270846  147.055693432    88.1020   6  16   0.0313   0.0263   0.0694   0.0042   0.0023  -0.0256   0.00    0.0
2022/12/25 02:27:30.000  -19.269270690  147.055693502    88.0334   6  16   0.0312   0.0262   0.0691   0.0047   0.0026  -0.0255   0.00    0.0
2022/12/25 02:28:00.000  -19.269270826  147.055693320    88.0827   6  16   0.0310   0.0261   0.0690   0.0053   0.0022  -0.0255   0.00    0.0
2022/12/25 02:28:30.000  -19.269270942  147.055693101    88.2196   6  16   0.0309   0.0260   0.0688   0.0056   0.0020  -0.0256   0.00    0.0
2022/12/25 02:29:00.000  -19.269270837  147.055693200    88.1665   6  16   0.0308   0.0260   0.0686   0.0056   0.0022  -0.0255   0.00    0.0
2022/12/25 02:29:30.000  -19.269270941  147.055693026    88.2079   6  16   0.0306   0.0259   0.0684   0.0061   0.0017  -0.0254   0.00    0.0
2022/12/25 02:30:00.000  -19.269270896  147.055693112    88.1468   6  16   0.0306   0.0259   0.0683   0.0063   0.0012  -0.0254   0.00    0.0
2022/12/25 02:30:30.000  -19.269271071  147.055693053    88.1911   6  16   0.0305   0.0258   0.0681   0.0064   0.0007  -0.0255   0.00    0.0
2022/12/25 02:31:00.000  -19.269270721  147.055693263    88.1096   6  16   0.0304   0.0257   0.0679   0.0065  -0.0016  -0.0253   0.00    0.0
2022/12/25 02:31:30.000  -19.269271021  147.055693264    88.1323   6  16   0.0303   0.0258   0.0678   0.0065  -0.0014  -0.0253   0.00    0.0
2022/12/25 02:32:00.000  -19.269270934  147.055693230    88.1719   6  16   0.0303   0.0257   0.0676   0.0068  -0.0020  -0.0252   0.00    0.0
2022/12/25 02:32:30.000  -19.269270894  147.055693146    88.1381   6  16   0.0302   0.0257   0.0674   0.0069  -0.0023  -0.0250   0.00    0.0
2022/12/25 02:33:00.000  -19.269270963  147.055693043    88.1912   6  16   0.0301   0.0256   0.0673   0.0068  -0.0026  -0.0250   0.00    0.0
2022/12/25 02:33:30.000  -19.269271059  147.055693165    88.1815   6  16   0.0301   0.0255   0.0671   0.0069  -0.0031  -0.0249   0.00    0.0
2022/12/25 02:34:00.000  -19.269271005  147.055693107    88.1365   6  16   0.0300   0.0256   0.0670   0.0068  -0.0031  -0.0247   0.00    0.0
2022/12/25 02:34:30.000  -19.269271046  147.055693164    88.1463   6  16   0.0299   0.0255   0.0668   0.0070  -0.0035  -0.0245   0.00    0.0
2022/12/25 02:35:00.000  -19.269270923  147.055693019    88.1648   6  16   0.0299   0.0255   0.0666   0.0070  -0.0034  -0.0244   0.00    0.0
2022/12/25 02:35:30.000  -19.269270872  147.055693123    88.1334   6  16   0.0297   0.0254   0.0665   0.0070  -0.0036  -0.0243   0.00    0.0
2022/12/25 02:36:00.000  -19.269270862  147.055693301    88.1121   6  16   0.0296   0.0254   0.0663   0.0068  -0.0036  -0.0241   0.00    0.0
2022/12/25 02:36:30.000  -19.269270893  147.055693261    88.1203   6  16   0.0296   0.0254   0.0662   0.0069  -0.0038  -0.0240   0.00    0.0
2022/12/25 02:37:00.000  -19.269270920  147.055692975    88.0994   6  16   0.0295   0.0253   0.0660   0.0073  -0.0043  -0.0238   0.00    0.0
2022/12/25 02:37:30.000  -19.269270832  147.055693164    88.1228   6  16   0.0294   0.0253   0.0658   0.0071  -0.0042  -0.0235   0.00    0.0
2022/12/25 02:38:00.000  -19.269270937  147.055693132    88.1514   6  16   0.0293   0.0253   0.0656   0.0072  -0.0046  -0.0233   0.00    0.0
2022/12/25 02:38:30.000  -19.269271023  147.055693161    88.1061   6  16   0.0293   0.0252   0.0655   0.0071  -0.0047  -0.0231   0.00    0.0
2022/12/25 02:39:00.000  -19.269270865  147.055693326    88.0273   6  16   0.0291   0.0252   0.0653   0.0070  -0.0048  -0.0229   0.00    0.0
2022/12/25 02:39:30.000  -19.269270939  147.055693176    88.1605   6  16   0.0290   0.0252   0.0652   0.0069  -0.0046  -0.0227   0.00    0.0
2022/12/25 02:40:00.000  -19.269270793  147.055693054    88.1627   6  16   0.0290   0.0252   0.0650   0.0071  -0.0049  -0.0226   0.00    0.0
2022/12/25 02:40:30.000  -19.269270900  147.055693221    88.1233   6  16   0.0289   0.0252   0.0649   0.0068  -0.0046  -0.0224   0.00    0.0
2022/12/25 02:41:00.000  -19.269270938  147.055693149    88.1966   6  16   0.0289   0.0251   0.0648   0.0068  -0.0047  -0.0222   0.00    0.0
2022/12/25 02:41:30.000  -19.269270845  147.055693343    88.0530   6  16   0.0287   0.0251   0.0646   0.0067  -0.0050  -0.0219   0.00    0.0
2022/12/25 02:42:00.000  -19.269270947  147.055693110    88.0990   6  16   0.0286   0.0250   0.0644   0.0067  -0.0050  -0.0215   0.00    0.0
2022/12/25 02:42:30.000  -19.269270943  147.055693116    88.1479   6  16   0.0285   0.0251   0.0643   0.0067  -0.0048  -0.0214   0.00    0.0
2022/12/25 02:43:00.000  -19.269270881  147.055693232    88.0820   6  16   0.0284   0.0251   0.0641   0.0069  -0.0053  -0.0211   0.00    0.0
2022/12/25 02:43:30.000  -19.269270926  147.055693318    88.1852   6  16   0.0282   0.0250   0.0640   0.0066  -0.0051  -0.0209   0.00    0.0
2022/12/25 02:44:00.000  -19.269270976  147.055693320    88.1612   6  16   0.0281   0.0250   0.0639   0.0063  -0.0049  -0.0206   0.00    0.0
2022/12/25 02:44:30.000  -19.269270826  147.055693101    88.1639   6  16   0.0279   0.0249   0.0637   0.0065  -0.0052  -0.0203   0.00    0.0
2022/12/25 02:45:00.000  -19.269270850  147.055693152    88.1490   6  16   0.0279   0.0249   0.0636   0.0066  -0.0054  -0.0200   0.00    0.0
2022/12/25 02:45:30.000  -19.269270949  147.055693104    88.1412   6  16   0.0278   0.0249   0.0635   0.0065  -0.0052  -0.0198   0.00    0.0
2022/12/25 02:46:00.000  -19.269270924  147.055693198    88.1522   6  16   0.0276   0.0249   0.0633   0.0065  -0.0053  -0.0195   0.00    0.0
2022/12/25 02:46:30.000  -19.269270848  147.055693236    88.1186   6  16   0.0446   0.0250   0.0710  -0.0084   0.0087  -0.0388   0.00    0.0
2022/12/25 02:47:00.000  -19.269270849  147.055693355    88.1013   6  16   0.0390   0.0247   0.0670   0.0084  -0.0082  -0.0315   0.00    0.0
2022/12/25 02:47:30.000  -19.269271018  147.055693156    88.1890   6  16   0.0453   0.0251   0.0714  -0.0070   0.0077  -0.0395   0.00    0.0
2022/12/25 02:48:00.000  -19.269270890  147.055693250    88.1202   6  16   0.0455   0.0251   0.0715  -0.0070   0.0076  -0.0397   0.00    0.0
2022/12/25 02:48:30.000  -19.269271087  147.055693167    88.0860   6  16   0.0393   0.0245   0.0673   0.0086  -0.0086  -0.0321   0.00    0.0
2022/12/25 02:49:00.000  -19.269270951  147.055693222    88.1146   6  16   0.0458   0.0251   0.0717  -0.0068   0.0072  -0.0401   0.00    0.0
2022/12/25 02:49:30.000  -19.269270921  147.055693280    88.1529   6  15   0.0395   0.0245   0.0676   0.0089  -0.0087  -0.0324   0.00    0.0
2022/12/25 02:50:00.000  -19.269270818  147.055693215    88.0737   6  15   0.0461   0.0251   0.0720  -0.0066   0.0071  -0.0405   0.00    0.0
2022/12/25 02:50:30.000  -19.269270927  147.055693070    88.1611   6  15   0.0397   0.0245   0.0680   0.0094  -0.0096  -0.0329   0.00    0.0
2022/12/25 02:51:00.000  -19.269270876  147.055693274    88.1560   6  15   0.0373   0.0243   0.0667   0.0115  -0.0116  -0.0299   0.00    0.0
2022/12/25 02:51:30.000  -19.269270737  147.055693282    88.0794   6  15   0.0361   0.0242   0.0660   0.0124  -0.0125  -0.0284   0.00    0.0
2022/12/25 02:52:00.000  -19.269270896  147.055693227    88.1325   6  15   0.0354   0.0241   0.0657   0.0129  -0.0131  -0.0275   0.00    0.0
2022/12/25 02:52:30.000  -19.269270920  147.055693232    88.1128   6  15   0.0349   0.0241   0.0655   0.0132  -0.0134  -0.0268   0.00    0.0
2022/12/25 02:53:00.000  -19.269271066  147.055693178    88.1178   6  15   0.0345   0.0241   0.0655   0.0137  -0.0140  -0.0264   0.00    0.0
2022/12/25 02:53:30.000  -19.269270962  147.055693223    88.0472   6  15   0.0342   0.0239   0.0654   0.0137  -0.0146  -0.0263   0.00    0.0
2022/12/25 02:54:00.000  -19.269270893  147.055693113    88.1077   6  15   0.0340   0.0239   0.0653   0.0139  -0.0148  -0.0260   0.00    0.0
2022/12/25 02:54:30.000  -19.269270926  147.055693229    88.0954   6  15   0.0338   0.0238   0.0653   0.0141  -0.0148  -0.0260   0.00    0.0
2022/12/25 02:55:00.000  -19.269270754  147.055693262    88.1434   6  15   0.0336   0.0238   0.0653   0.0142  -0.0150  -0.0258   0.00    0.0
2022/12/25 02:55:30.000  -19.269271059  147.055693283    88.1619   6  15   0.0335   0.0237   0.0654   0.0143  -0.0152  -0.0257   0.00    0.0
2022/12/25 02:56:00.000  -19.269270778  147.055693279    88.1489   6  15   0.0334   0.0237   0.0654   0.0146  -0.0152  -0.0257   0.00    0.0
2022/12/25 02:56:30.000  -19.269270834  147.055693352    88.1079   6  15   0.0334   0.0237   0.0655   0.0147  -0.0153  -0.0258   0.00    0.0
2022/12/25 02:57:00.000  -19.269270940  147.055693135    88.0715   6  15   0.0333   0.0237   0.0656   0.0147  -0.0153  -0.0257   0.00    0.0
2022/12/25 02:57:30.000  -19.269270824  147.055693366    88.1048   6  15   0.0328   0.0236   0.0657   0.0146  -0.0154  -0.0259   0.00    0.0
2022/12/25 02:58:00.000  -19.269270752  147.055693321    88.0714   6  15   0.0332   0.0237   0.0658   0.0151  -0.0156  -0.0258   0.00    0.0
2022/12/25 02:58:30.000  -19.269270772  147.055693343    88.0992   6  15   0.0327   0.0236   0.0659   0.0149  -0.0157  -0.0260   0.00    0.0
2022/12/25 02:59:00.000  -19.269270849  147.055693468    88.0951   6  15   0.0331   0.0237   0.0660   0.0152  -0.0156  -0.0259   0.00    0.0
2022/12/25 02:59:30.000  -19.269270961  147.055693402    88.1310   6  15   0.0331   0.0237   0.0661   0.0153  -0.0157  -0.0260   0.00    0.0
2022/12/25 03:00:00.000  -19.269270980  147.055693177    88.1380   6  15   0.0330   0.0237   0.0662   0.0155  -0.0158  -0.0259   0.00    0.0
2022/12/25 03:00:30.000  -19.269270824  147.055693180    88.1109   6  15   0.0326   0.0236   0.0663   0.0152  -0.0158  -0.0263   0.00    0.0
2022/12/25 03:01:00.000  -19.269270832  147.055693333    88.1143   6  15   0.0325   0.0236   0.0664   0.0152  -0.0159  -0.0264   0.00    0.0
2022/12/25 03:01:30.000  -19.269270782  147.055693284    88.1072   6  15   0.0323   0.0235   0.0665   0.0153  -0.0160  -0.0265   0.00    0.0
2022/12/25 03:02:00.000  -19.269270823  147.055693409    88.1154   6  15   0.0323   0.0235   0.0666   0.0152  -0.0160  -0.0266   0.00    0.0
2022/12/25 03:02:30.000  -19.269270843  147.055693219    88.0972   6  15   0.0322   0.0235   0.0667   0.0153  -0.0161  -0.0267   0.00    0.0
2022/12/25 03:03:00.000  -19.269270724  147.055693236    88.0577   6  15   0.0322   0.0235   0.0668   0.0154  -0.0161  -0.0268   0.00    0.0
2022/12/25 03:03:30.000  -19.269270849  147.055693280    88.1130   6  14   0.0322   0.0237   0.0709   0.0153  -0.0181  -0.0264   0.00    0.0
2022/12/25 03:04:00.000  -19.269270932  147.055693183    88.0917   6  14   0.0322   0.0236   0.0709   0.0155  -0.0182  -0.0265   0.00    0.0
2022/12/25 03:04:30.000  -19.269270899  147.055693395    88.0965   6  14   0.0322   0.0236   0.0710   0.0156  -0.0182  -0.0267   0.00    0.0
2022/12/25 03:05:00.000  -19.269271040  147.055693301    88.1207   6  14   0.0322   0.0236   0.0711   0.0156  -0.0183  -0.0267   0.00    0.0
2022/12/25 03:05:30.000  -19.269270920  147.055693258    88.0978   6  14   0.0322   0.0236   0.0712   0.0156  -0.0182  -0.0269   0.00    0.0
2022/12/25 03:06:00.000  -19.269270807  147.055693353    88.0902   6  14   0.0323   0.0235   0.0713   0.0158  -0.0182  -0.0270   0.00    0.0
2022/12/25 03:06:30.000  -19.269270979  147.055693169    88.1398   6  14   0.0323   0.0236   0.0714   0.0158  -0.0182  -0.0271   0.00    0.0
2022/12/25 03:07:00.000  -19.269270976  147.055692996    88.1097   6  14   0.0323   0.0236   0.0714   0.0158  -0.0182  -0.0273   0.00    0.0
2022/12/25 03:07:30.000  -19.269270827  147.055693393    88.0914   6  14   0.0323   0.0235   0.0715   0.0160  -0.0182  -0.0274   0.00    0.0
2022/12/25 03:08:00.000  -19.269270898  147.055693260    88.0929   6  14   0.0324   0.0235   0.0716   0.0160  -0.0183  -0.0275   0.00    0.0
2022/12/25 03:08:30.000  -19.269270942  147.055693170    88.0526   6  14   0.0324   0.0234   0.0717   0.0161  -0.0182  -0.0277   0.00    0.0
2022/12/25 03:09:00.000  -19.269270871  147.055693250    88.1090   6  14   0.0324   0.0235   0.0718   0.0161  -0.0182  -0.0277   0.00    0.0
2022/12/25 03:09:30.000  -19.269270815  147.055693294    88.1286   6  14   0.0324   0.0235   0.0719   0.0162  -0.0182  -0.0279   0.00    0.0
2022/12/25 03:10:00.000  -19.269270871  147.055693323    88.0891   6  14   0.0324   0.0234   0.0719   0.0163  -0.0182  -0.0280   0.00    0.0
2022/12/25 03:10:30.000  -19.269270825  147.055693336    88.0644   6  14   0.0325   0.0234   0.0720   0.0164  -0.0182  -0.0282   0.00    0.0
2022/12/25 03:11:00.000  -19.269270753  147.055693273    88.0953   6  14   0.0325   0.0234   0.0721   0.0165  -0.0182  -0.0283   0.00    0.0
2022/12/25 03:11:30.000  -19.269270924  147.055693360    88.0745   6  14   0.0326   0.0234   0.0722   0.0165  -0.0181  -0.0284   0.00    0.0
2022/12/25 03:12:00.000  -19.269270776  147.055693337    88.0590   6  14   0.0326   0.0234   0.0723   0.0165  -0.0181  -0.0285   0.00    0.0
2022/12/25 03:12:30.000  -19.269270934  147.055693241    88.1568   6  14   0.0326   0.0233   0.0723   0.0167  -0.0182  -0.0286   0.00    0.0
2022/12/25 03:13:00.000  -19.269270676  147.055693428    88.0786   6  14   0.0327   0.0233   0.0725   0.0167  -0.0181  -0.0288   0.00    0.0
2022/12/25 03:13:30.000  -19.269270961  147.055693265    88.1136   6  14   0.0328   0.0233   0.0725   0.0167  -0.0181  -0.0289   0.00    0.0
2022/12/25 03:14:00.000  -19.269270869  147.055693168    88.1227   6  14   0.0330   0.0234   0.0733   0.0166  -0.0173  -0.0296   0.00    0.0
2022/12/25 03:14:30.000  -19.269270878  147.055693468    88.0816   6  14   0.0331   0.0234   0.0731   0.0167  -0.0176  -0.0296   0.00    0.0
2022/12/25 03:15:00.000  -19.269271034  147.055693201    88.1649   6  14   0.0332   0.0234   0.0735   0.0167  -0.0172  -0.0300   0.00    0.0
2022/12/25 03:15:30.000  -19.269270946  147.055693258    88.1340   6  14   0.0332   0.0233   0.0734   0.0168  -0.0175  -0.0299   0.00    0.0
2022/12/25 03:16:00.000  -19.269271053  147.055693304    88.1085   6  14   0.0334   0.0235   0.0744   0.0169  -0.0164  -0.0299   0.00    0.0
2022/12/25 03:16:30.000  -19.269270699  147.055693159    88.1979   6  13   0.0336   0.0235   0.0749   0.0170  -0.0162  -0.0297   0.00    0.0
2022/12/25 03:17:00.000  -19.269271124  147.055693251    88.1630   6  13   0.0337   0.0235   0.0751   0.0170  -0.0160  -0.0299   0.00    0.0
2022/12/25 03:17:30.000  -19.269270912  147.055693206    88.1309   6  13   0.0338   0.0234   0.0752   0.0171  -0.0161  -0.0300   0.00    0.0
2022/12/25 03:18:00.000  -19.269270877  147.055693259    88.1328   6  13   0.0338   0.0234   0.0748   0.0172  -0.0165  -0.0298   0.00    0.0
2022/12/25 03:18:30.000  -19.269271126  147.055693196    88.2117   6  13   0.0339   0.0235   0.0755   0.0172  -0.0160  -0.0303   0.00    0.0
2022/12/25 03:19:00.000  -19.269270910  147.055693186    88.1577   6  13   0.0340   0.0234   0.0756   0.0172  -0.0159  -0.0305   0.00    0.0
2022/12/25 03:19:30.000  -19.269270923  147.055693231    88.1395   6  13   0.0341   0.0234   0.0757   0.0173  -0.0159  -0.0306   0.00    0.0
2022/12/25 03:20:00.000  -19.269271204  147.055693210    88.1678   6  13   0.0342   0.0234   0.0759   0.0173  -0.0157  -0.0308   0.00    0.0
2022/12/25 03:20:30.000  -19.269270880  147.055693223    88.1636   6  13   0.0342   0.0234   0.0760   0.0174  -0.0157  -0.0309   0.00    0.0
2022/12/25 03:21:00.000  -19.269270917  147.055693330    88.0950   6  14   0.0343   0.0233   0.0761   0.0175  -0.0157  -0.0310   0.00    0.0
2022/12/25 03:21:30.000  -19.269271075  147.055692982    88.1639   6  14   0.0342   0.0232   0.0742   0.0171  -0.0174  -0.0320   0.00    0.0
2022/12/25 03:22:00.000  -19.269270900  147.055693155    88.1566   6  14   0.0342   0.0230   0.0735   0.0170  -0.0179  -0.0325   0.00    0.0
2022/12/25 03:22:30.000  -19.269270799  147.055693384    88.1165   6  14   0.0339   0.0229   0.0731   0.0172  -0.0183  -0.0324   0.00    0.0
2022/12/25 03:23:30.000  -19.269270859  147.055693274    88.1446   6  14   0.0349   0.0229   0.0731   0.0173  -0.0185  -0.0326   0.00    0.0
2022/12/25 03:24:00.000  -19.269271010  147.055693298    88.1660   6  14   0.0345   0.0229   0.0731   0.0173  -0.0185  -0.0329   0.00    0.0
2022/12/25 03:24:30.000  -19.269271028  147.055693254    88.1653   6  14   0.0344   0.0228   0.0730   0.0171  -0.0187  -0.0330   0.00    0.0
2022/12/25 03:25:00.000  -19.269270833  147.055693277    88.1576   6  14   0.0344   0.0227   0.0730   0.0172  -0.0186  -0.0332   0.00    0.0
2022/12/25 03:25:30.000  -19.269271038  147.055693296    88.1225   6  14   0.0344   0.0227   0.0729   0.0172  -0.0186  -0.0334   0.00    0.0
2022/12/25 03:26:00.000  -19.269270939  147.055693149    88.1118   6  14   0.0344   0.0227   0.0729   0.0172  -0.0186  -0.0335   0.00    0.0
2022/12/25 03:26:30.000  -19.269270822  147.055693231    88.1581   6  14   0.0344   0.0227   0.0730   0.0171  -0.0186  -0.0336   0.00    0.0
2022/12/25 03:27:00.000  -19.269271037  147.055693286    88.1478   6  14   0.0345   0.0226   0.0730   0.0172  -0.0186  -0.0337   0.00    0.0
2022/12/25 03:27:30.000  -19.269270918  147.055693172    88.1364   6  14   0.0345   0.0226   0.0730   0.0171  -0.0185  -0.0338   0.00    0.0
2022/12/25 03:28:00.000  -19.269270761  147.055693184    88.1115   6  14   0.0345   0.0226   0.0730   0.0171  -0.0185  -0.0339   0.00    0.0
2022/12/25 03:28:30.000  -19.269271090  147.055693221    88.1518   6  14   0.0346   0.0225   0.0730   0.0170  -0.0185  -0.0340   0.00    0.0
2022/12/25 03:29:00.000  -19.269271072  147.055693360    88.1473   6  14   0.0346   0.0225   0.0730   0.0171  -0.0184  -0.0340   0.00    0.0
2022/12/25 03:29:30.000  -19.269270996  147.055693315    88.1735   6  14   0.0355   0.0225   0.0737   0.0174  -0.0189  -0.0351   0.00    0.0
2022/12/25 03:30:00.000  -19.269270764  147.055693179    88.1330   6  14   0.0355   0.0226   0.0737   0.0173  -0.0187  -0.0352   0.00    0.0
2022/12/25 03:30:30.000  -19.269270946  147.055693185    88.1295   6  14   0.0355   0.0224   0.0737   0.0173  -0.0188  -0.0353   0.00    0.0
2022/12/25 03:31:00.000  -19.269270869  147.055693359    88.1045   6  14   0.0356   0.0224   0.0737   0.0173  -0.0187  -0.0353   0.00    0.0
2022/12/25 03:31:30.000  -19.269270787  147.055693288    88.0922   6  14   0.0356   0.0224   0.0736   0.0173  -0.0185  -0.0353   0.00    0.0
2022/12/25 03:32:00.000  -19.269270922  147.055693187    88.1477   6  13   0.0359   0.0230   0.0799   0.0179  -0.0226  -0.0372   0.00    0.0
2022/12/25 03:32:30.000  -19.269271225  147.055693136    88.1774   6  13   0.0359   0.0229   0.0798   0.0178  -0.0224  -0.0372   0.00    0.0
2022/12/25 03:33:00.000  -19.269270856  147.055693185    88.1666   6  14   0.0359   0.0228   0.0797   0.0178  -0.0222  -0.0372   0.00    0.0
2022/12/25 03:33:30.000  -19.269270917  147.055693238    88.1494   6  14   0.0359   0.0227   0.0795   0.0177  -0.0220  -0.0371   0.00    0.0
2022/12/25 03:34:00.000  -19.269270984  147.055693240    88.1592   6  15   0.0359   0.0227   0.0794   0.0176  -0.0218  -0.0371   0.00    0.0
